site_type,site_name,site_description,site_owner_name,latitude,longitude,city,state,zipcode,country,creation_date,region_hierarchyl1,region_hierarchyl2,region_hierarchyl3,region_hierarchyl4,region_hierarchyl5
DC,2427,EXP MRF Luxembourg Global Holdi,MRF,49.60958862,6.12969017,Luxembourg,TX,75252,LUX,9/11/2019 17:01,Luxembourg,,,LUX,
DC,2255,EXP ZA SOUTH AFRICA,MRF,-26.04319954,28.06967926,WOODMEAD,AZ,75235,ZAF,9/11/2019 17:01,WOODMEAD,,,ZAF,
DC,2384,EXP B-D U.K. Holdings Limited,MRF,51.75629044,-1.25951004,Oxford,AR,75218,GBR,9/11/2019 17:01,Oxford,,,GBR,
DC,3167,DC AU PERTH  (3PL),MRF,-31.8529892,115.8824921,Malaga,OH,75201,AUS,9/11/2019 17:01,Malaga,,,AUS,
DC,2297,EXP LU LUX WW INVEST SARL,MRF,49.60958862,6.12969017,Luxembourg,CA,75184,LUX,9/11/2019 17:01,Luxembourg,,,LUX,
DC,3033,DC AU MELBOURNE,MRF,-37.89186859,145.233017,Scoresby,FL,75167,AUS,9/11/2019 17:01,Scoresby,,,AUS,
DC,2333,DC BE Temse (Temporary),MRF,51.12475967,4.214290142,Temse,NH,75150,BEL,9/11/2019 17:01,Temse,,,BEL,
DC,3351,DC IN MUMBAI,MRF,18.94017029,72.83486176,Mumbai,NW,75133,IND,9/11/2019 17:01,Mumbai,,,IND,
DC,2296,EXP LU LUXEMBOURG LLC SCS,MRF,49.60958862,6.12969017,Luxembourg,HA,75116,LUX,9/11/2019 17:01,Luxembourg,,,LUX,
DC,2480,EXP SA Saudi,MRF,50.92108154,4.055130005,Erembodegem,CA,75099,BEL,9/11/2019 17:01,Erembodegem,,,BEL,
DC,2395,EXP MRF Luxembourg III SCS,MRF,49.60958862,6.12969017,Luxembourg,TX,75082,LUX,9/11/2019 17:01,Luxembourg,,,LUX,
DC,4096,DC BR Itajai,MRF,-26.90835953,-48.66260147,Itajai,AZ,75065,BRA,9/11/2019 17:01,Itajai,,,BRA,
DC,2299,EXP LU LUX MANAGEMENT SARL,MRF,49.60958862,6.12969017,Luxembourg,AR,75048,LUX,9/11/2019 17:01,Luxembourg,,,LUX,
DC,2330,DC GLD FR Le Pont de Claix,MRF,45.08229065,5.73390007,Champ sur Drac,OH,75031,FRA,9/11/2019 17:01,Champ sur Drac,,,FRA,
DC,2418,EXP CFN Netherlands 283 CV,MRF,52.02190018,5.164350033,HOUTEN,CA,75014,NLD,9/11/2019 17:01,HOUTEN,,,NLD,
DC,3178,DC CN SHANGHAI 1,MRF,31.23036957,121.4737015,,FL,74997,CHN,9/11/2019 17:01,,,,CHN,
DC,2260,EXP MRF Norway,MRF,63.40126419,10.40834904,Trondheim,NH,74980,NOR,9/11/2019 17:01,Trondheim,,,NOR,
DC,2236,EXP CH APIS,MRF,47.55257797,7.546517849,ALLSCHWIL,NW,74963,CHE,9/11/2019 17:01,ALLSCHWIL,,,CHE,
DC,2242,EXP NL NETHERLANDS,MRF,51.99280167,5.094610214,Vianen,HA,74946,NLD,9/11/2019 17:01,Vianen,,,NLD,
DC,2230,EXP MRF Research center Ireland,MRF,53.29359818,-6.13465023,DUN LAOGHAIRE,CA,74929,IRL,9/11/2019 17:01,DUN LAOGHAIRE,,,IRL,
DC,2434,EXP Dutch American Manu (DAM),MRF,52.02190018,5.164350033,HOUTEN,TX,74912,NLD,9/11/2019 17:01,HOUTEN,,,NLD,
DC,2398,EXP EU Conso adjustments EMA,MRF,45.12440109,5.697659969,Le Pont-de-Claix,AZ,74895,FRA,9/11/2019 17:01,Le Pont-de-Claix,,,FRA,
DC,2298,EXP LU LUX HOLDINGS SARL,MRF,49.60958862,6.12969017,Luxembourg,AR,74878,LUX,9/11/2019 17:01,Luxembourg,,,LUX,
DC,2420,EXP MRF Global Holdings Switzer,MRF,46.38056946,6.205770016,Eysins,OH,74861,CHE,9/11/2019 17:01,Eysins,,,CHE,
DC,2143,MFG IE Drogheda (Penel),MRF,53.71598816,-6.356770039,Drogheda,CA,74844,IRL,9/11/2019 17:01,Drogheda,,,IRL,
DC,3361,DC IN HYDERABAD,MRF,17.36599922,78.47599792,Hyderabad,FL,74827,IND,9/11/2019 17:01,Hyderabad,,,IND,
DC,2259,EXP DK DENMARK,MRF,55.66893768,12.35608482,Albertslund,NH,74810,DNK,9/11/2019 17:01,Albertslund,,,DNK,
DC,2272,EXP MRF Slovakia,MRF,48.14923859,17.10699081,Bratislava,NW,74793,SVK,9/11/2019 17:01,Bratislava,,,SVK,
DC,2412,EXP CFN Netherlands 503 B.V.,MRF,52.02190018,5.164350033,HOUTEN,HA,74776,NLD,9/11/2019 17:01,HOUTEN,,,NLD,
DC,3090,DC SG,MRF,1.290179968,103.8519897,,CA,74759,SGP,9/11/2019 17:01,,,,SGP,
DC,3343,DC CN SHANGHAI 2,MRF,31.23036957,121.4737015,SHANGHAI,TX,74742,CHN,9/11/2019 17:01,SHANGHAI,,,CHN,
DC,2318,EXP Maghreb,MRF,50.92108154,4.055130005,Erembodegem,AZ,74725,BEL,9/11/2019 17:01,Erembodegem,,,BEL,
DC,3141,DC HK,MRF,22.28552,114.15769,Hong Kong,AR,74708,HKG,9/11/2019 17:01,Hong Kong,,,HKG,
DC,2257,EXP SE SWEDEN,MRF,59.33256912,18.06682968,STOCKHOLM,OH,74691,SWE,9/11/2019 17:01,STOCKHOLM,,,SWE,
DC,2245,EXP BE SAS BELG. BRANCH,MRF,50.92108154,4.055130005,Erembodegem,CA,74674,BEL,9/11/2019 17:01,Erembodegem,,,BEL,
DC,2417,EXP CareFusion NL 504 B.V,MRF,52.02190018,5.164350033,HOUTEN,FL,74657,NLD,9/11/2019 17:01,HOUTEN,,,NLD,
DC,2292,EXP GI ASIA HOLDINGS LTd,MRF,36.14540863,-5.35326004,Gibraltar,NH,76486,GIB,9/11/2019 17:01,Gibraltar,,,GIB,
DC,2423,EXP PT Portugal,MRF,38.72639084,-9.149479866,Lisboa,NW,76894,PRT,9/11/2019 17:01,Lisboa,,,PRT,
DC,2401,EXP CareFusion UK 244,MRF,51.2625618,-1.082329988,Basingstoke,HA,77302,GBR,9/11/2019 17:01,Basingstoke,,,GBR,
DC,2248,EXP PL POLAND,MRF,52.23559952,21.01037025,Warszawa,CA,77710,POL,9/11/2019 17:01,Warszawa,,,POL,
DC,2301,EXP SE Sweden Holdings AB,MRF,59.33256912,18.06682968,STOCKHOLM,TX,78118,SWE,9/11/2019 17:01,STOCKHOLM,,,SWE,
DC,2307,EXP MRF NETHERLANDS HOLDINGS II,MRF,51.58769989,4.651070118,Etten-Leur,AZ,78526,NLD,9/11/2019 17:01,Etten-Leur,,,NLD,
DC,3091,DC SG RDC,MRF,1.290179968,103.8519897,SINGAPORE,AR,78934,SGP,9/11/2019 17:01,SINGAPORE,,,SGP,
DC,2291,EXP GI HOLDINGS LIMITED,MRF,36.14540863,-5.35326004,Gibraltar,OH,79342,GIB,9/11/2019 17:01,Gibraltar,,,GIB,
DC,2053,EXP MRF Helsingborg,MRF,56.04181671,12.73036194,HELSINGBORG,CA,79750,SWE,9/11/2019 17:01,HELSINGBORG,,,SWE,
DC,2304,EXP SE CARMEL PHARMA AB,MRF,57.70066833,11.96821976,G?teborg,FL,80158,SWE,9/11/2019 17:01,G?teborg,,,SWE,
DC,2282,EXP MRF Croatia D,MRF,45.80723953,15.9675703,Zagreb,NH,80566,HRV,9/11/2019 17:01,Zagreb,,,HRV,
DC,3363,DC IN CHENNAI,MRF,13.08362007,80.28251648,Chennai,NW,80974,IND,9/11/2019 17:01,Chennai,,,IND,
DC,2293,EXP GI Far East Holding LTD,MRF,36.14540863,-5.35326004,Gibraltar,HA,81382,GIB,9/11/2019 17:01,Gibraltar,,,GIB,
DC,2379,EXP CFN Portugal,MRF,39.67990875,-7.968665123,Carcavelos (Cascais),CA,81790,PRT,9/11/2019 17:01,Carcavelos (Cascais),,,PRT,
DC,2319,EXP International Branch East,MRF,50.92108154,4.055130005,Erembodegem,TX,82198,BEL,9/11/2019 17:01,Erembodegem,,,BEL,
DC,2400,EXP CareFusion UK 305,MRF,51.2625618,-1.082329988,Basingstoke,AZ,82606,GBR,9/11/2019 17:01,Basingstoke,,,GBR,
DC,2432,EXP UK Intermediate CareFusion,MRF,51.2625618,-1.082329988,Basingstoke,AR,83014,GBR,9/11/2019 17:01,Basingstoke,,,GBR,
DC,2396,EXP Western Europe consolidati,MRF,45.12440109,5.697659969,Le Pont-de-Claix,OH,83422,FRA,9/11/2019 17:01,Le Pont-de-Claix,,,FRA,
DC,2410,EXP CFN Netherlands 310 B.V.,MRF,52.02190018,5.164350033,HOUTEN,CA,83830,NLD,9/11/2019 17:01,HOUTEN,,,NLD,
DC,2249,EXP CZ Czech Republic,MRF,50.09415817,14.36748028,Praha 6,FL,84238,CZE,9/11/2019 17:01,Praha 6,,,CZE,
DC,2407,EXP MRF Sweden,MRF,59.44402313,17.95011902,SOLLENTUNA,NH,84646,SWE,9/11/2019 17:01,SOLLENTUNA,,,SWE,
DC,2380,EXP Intermediate CareFusion ES,MRF,40.38769531,-3.557390928,Alcobendas (Madrid),NW,85054,ESP,9/11/2019 17:01,Alcobendas (Madrid),,,ESP,
DC,2311,EXP MRF GSA  Bete,MRF,49.4134903,8.707980156,HEIDELBERG,HA,85462,DEU,9/11/2019 17:01,HEIDELBERG,,,DEU,
DC,2280,EXP LU LUXEMBOURG SARL,MRF,49.60958862,6.12969017,Luxembourg,CA,85870,LUX,9/11/2019 17:01,Luxembourg,,,LUX,
DC,2251,EXP Intl Branch Eastern Europe,MRF,50.92108154,4.055130005,Erembodegem,TX,86278,BEL,9/11/2019 17:01,Erembodegem,,,BEL,
DC,2378,EXP NO Norway,MRF,63.40126419,10.40834904,Trondheim,AZ,86686,NOR,9/11/2019 17:01,Trondheim,,,NOR,
DC,2422,EXP MRF Switzerland Sarl (Trade,MRF,46.38056946,6.205770016,Eysins,AR,87094,CHE,9/11/2019 17:01,Eysins,,,CHE,
DC,3350,DC SG RDC Cold Chain,MRF,1.290179968,103.8519897,SINGAPORE,OH,87502,SGP,9/11/2019 17:01,SINGAPORE,,,SGP,
DC,2237,EXP CH SAMPLE COLLECTION,MRF,47.55257797,7.546517849,ALLSCHWIL,CA,87910,CHE,9/11/2019 17:01,ALLSCHWIL,,,CHE,
DC,2320,EXP International Branch South,MRF,50.92108154,4.055130005,Erembodegem,FL,88318,BEL,9/11/2019 17:01,Erembodegem,,,BEL,
DC,2314,EXP AT MRF AUSTRIA Holding,MRF,48.13985825,16.47717094,Schwechat,NH,88726,AUT,9/11/2019 17:01,Schwechat,,,AUT,
DC,2231,EXP IE IRELAND,MRF,53.29359818,-6.13465023,DUN LAOGHAIRE,NW,89134,IRL,9/11/2019 17:01,DUN LAOGHAIRE,,,IRL,
DC,2404,EXP CFN UK 306 Ltd Poland,MRF,52.23559952,21.01037025,Warsaw,HA,89542,POL,9/11/2019 17:01,Warsaw,,,POL,
DC,2406,EXP CareFusion Austria 322,MRF,48.20262909,16.36841965,Wien,CA,89950,AUT,9/11/2019 17:01,Wien,,,AUT,
DC,2308,EXP GB SIRIGEN II,MRF,51.75629044,-1.25951004,Oxford,TX,90358,GBR,9/11/2019 17:01,Oxford,,,GBR,
DC,2284,EXP MRF Management GmbH & Co. K,MRF,49.4134903,8.707980156,HEIDELBERG,AZ,90766,DEU,9/11/2019 17:01,HEIDELBERG,,,DEU,
DC,2285,EXP EUROPE HOLDINGS SAS,MRF,45.12440109,5.697659969,Le Pont-de-Claix,AR,91174,FRA,9/11/2019 17:01,Le Pont-de-Claix,,,FRA,
DC,3362,DC IN COIMBTORE,MRF,10.9941597,76.96629333,Coimbatore,OH,91582,IND,9/11/2019 17:01,Coimbatore,,,IND,
DC,2389,EXP SE Sweden Holdings AB,MRF,59.33256912,18.06682968,STOCKHOLM,CA,91990,SWE,9/11/2019 17:01,STOCKHOLM,,,SWE,
DC,2007,MFG ES Fraga,MRF,41.279772,0.5074107,Fraga,FL,92398,ESP,9/11/2019 17:01,Fraga,,,ESP,
DC,3174,EXP TH,MRF,13.75335979,100.5048294,BANGKOK,NH,92806,THA,9/11/2019 17:01,BANGKOK,,,THA,
DC,2479,EXP CH MRF Switz Sarl Cont Mfg,MRF,46.38056946,6.205770016,Eysins,NW,93214,CHE,9/11/2019 17:01,Eysins,,,CHE,
DC,4190,DC BR Sao Paulo,MRF,-23.53100967,-46.78623962,Osasco,HA,93622,BRA,9/11/2019 17:01,Osasco,,,BRA,
DC,2283,EXP DE VERWALTUNGS GMBH,MRF,49.4134903,8.707980156,HEIDELBERG,CA,94030,DEU,9/11/2019 17:01,HEIDELBERG,,,DEU,
DC,3112,DC AU BRISBANE,MRF,-27.57546997,153.0875549,Eight Mile Plains,TX,94438,AUS,9/11/2019 17:01,Eight Mile Plains,,,AUS,
DC,2253,EXP TR TURKEY,MRF,41.01300049,28.96380043,Istanbul,AZ,94846,TUR,9/11/2019 17:01,Istanbul,,,TUR,
DC,2252,EXP AE UNITED ARAB EMIRATES,MRF,25.26951027,55.30884171,DUBAI,AR,95254,ARE,9/11/2019 17:01,DUBAI,,,ARE,
DC,2235,EXP CH SWITZERLAND,MRF,47.55257797,7.546517849,ALLSCHWIL,OH,95662,CHE,9/11/2019 17:01,ALLSCHWIL,,,CHE,
DC,2258,EXP FI FINLAND,MRF,60.28937149,25.02956009,Vantaa,CA,96070,FIN,9/11/2019 17:01,Vantaa,,,FIN,
DC,2239,EXP IT ITALY,MRF,43.52902985,12.16218376,Buccinasco (MI),FL,96478,ITA,9/11/2019 17:01,Buccinasco (MI),,,ITA,
DC,2408,EXP CareFusion Finland,MRF,60.17116165,24.93264961,HELSINKI,NH,96886,FIN,9/11/2019 17:01,HELSINKI,,,FIN,
DC,2294,EXP GI GIBRALTAR LTD,MRF,36.14540863,-5.35326004,Gibraltar,NW,97294,GIB,9/11/2019 17:01,Gibraltar,,,GIB,
DC,2254,EXP MRF BVMRF International Bran,MRF,50.92108154,4.055130005,Erembodegem,HA,97702,BEL,9/11/2019 17:01,Erembodegem,,,BEL,
DC,2256,EXP EAST AFRICA,MRF,-1.283519983,36.8237915,Nairobi,CA,98110,KEN,9/11/2019 17:01,Nairobi,,,KEN,
DC,4016,MFG MX Promedicor,MRF,19.64209938,-99.247612,Cuautitlan Izcalli,TX,98518,MEX,9/11/2019 17:01,Cuautitlan Izcalli,,,MEX,
DC,3034,DC JP HANEDA,MRF,35.68407822,139.8088531,Tokyo,AZ,98926,JPN,9/11/2019 17:01,Tokyo,,,JPN,
DC,3110,DC KR SEOUL,MRF,35.98906326,128.3977051,Chilgok,AR,99334,KOR,9/11/2019 17:01,Chilgok,,,KOR,
DC,2246,EXP BE EUROPEAN DISTRIBUTION C,MRF,51.12475967,4.214290142,Temse,OH,99742,BEL,9/11/2019 17:01,Temse,,,BEL,
DC,3356,DC IN KOLKATA,MRF,22.57053947,88.37123871,Kolkata,CA,56497,IND,9/11/2019 17:01,Kolkata,,,IND,
DC,2233,EXP DE GERMANY,MRF,49.4134903,8.707980156,HEIDELBERG,FL,56897,DEU,9/11/2019 17:01,HEIDELBERG,,,DEU,
DC,3140,DC HKCN,MRF,22.28552,114.15769,Hong Kong,NH,57297,CHN,9/11/2019 17:01,Hong Kong,,,CHN,
DC,3179,DC CN BEIJING,MRF,39.90468979,116.4071732,,NW,57697,CHN,9/11/2019 17:01,,,,CHN,
DC,2317,EXP International branch SAUDI,MRF,50.92108154,4.055130005,Erembodegem,HA,58097,BEL,9/11/2019 17:01,Erembodegem,,,BEL,
DC,3360,DC IN BANGALORE,MRF,12.96685028,77.5874176,Bangalore,CA,58497,IND,9/11/2019 17:01,Bangalore,,,IND,
DC,2481,EXP LU MRF Luxemb,MRF,49.60958862,6.12969017,Luxembourg,TX,58897,LUX,9/11/2019 17:01,Luxembourg,,,LUX,
DC,2390,EXP SE Healthcare Holdings,MRF,56.04181671,12.73036194,HELSINGBORG,AZ,59297,SWE,9/11/2019 17:01,HELSINGBORG,,,SWE,
DC,3376,DC JP SAITAMA,MRF,35.88417816,139.6288757,Saitama,AR,59697,JPN,9/11/2019 17:01,Saitama,,,JPN,
DC,3177,DC CN SH FTZ BONDED,MRF,31.23036957,121.4737015,SHANGHAI,OH,60097,CHN,9/11/2019 17:01,SHANGHAI,,,CHN,
DC,2303,EXP LU LUX HOLDINGS II SARL,MRF,49.60958862,6.12969017,Luxembourg,CA,60497,LUX,9/11/2019 17:01,Luxembourg,,,LUX,
DC,2295,EXP NL HOLDINGS,MRF,51.58769989,4.651070118,Etten-Leur,FL,60897,NLD,9/11/2019 17:01,Etten-Leur,,,NLD,
DC,3370,DC NZ Auckland,MRF,-43.94763947,170.5028687,Mt Wellington,NH,61297,NZL,9/11/2019 17:01,Mt Wellington,,,NZL,
DC,3372,DC JP FUKUSHIMA,MRF,37.74317932,140.4853973,Fukushima,NW,61697,JPN,9/11/2019 17:01,Fukushima,,,JPN,
DC,2247,EXP BE SAS BELG. BRANCH,MRF,50.92108154,4.055130005,Erembodegem,HA,62097,BEL,9/11/2019 17:01,Erembodegem,,,BEL,
DC,2405,EXP FR France,MRF,45.12440109,5.697659969,Le Pont-de-Claix,CA,62497,FRA,9/11/2019 17:01,Le Pont-de-Claix,,,FRA,
DC,2387,EXP GB IT HOLDINGS UK Ltd,MRF,51.75629044,-1.25951004,Oxford,TX,62897,GBR,9/11/2019 17:01,Oxford,,,GBR,
DC,2321,EXP International Branch MGT A,MRF,50.92108154,4.055130005,Erembodegem,AZ,63297,BEL,9/11/2019 17:01,Erembodegem,,,BEL,
DC,2263,EXP IE BENEX LTD,MRF,53.29359818,-6.13465023,DUN LAOGHAIRE,AR,63697,IRL,9/11/2019 17:01,DUN LAOGHAIRE,,,IRL,
DC,3313,DC JP KOBE,MRF,34.70388031,135.2224274,Kobe,OH,64097,JPN,9/11/2019 17:01,Kobe,,,JPN,
DC,2267,EXP RU Moscow,MRF,55.75696182,37.61502075,MOSCOW,CA,64497,RUS,9/11/2019 17:01,MOSCOW,,,RUS,
DC,2302,EXP LU LUXEMBOURG II SCS,MRF,49.60958862,6.12969017,Luxembourg,FL,64897,LUX,9/11/2019 17:01,Luxembourg,,,LUX,
DC,3349,DC IN LUHARI,MRF,28.6341095,77.21691132,Delhi,NH,65297,IND,9/11/2019 17:01,Delhi,,,IND,
DC,2264,EXP EI Penel Ltd  Shannon,MRF,53.29359818,-6.13465023,DUN LAOGHAIRE,NW,65697,IRL,9/11/2019 17:01,DUN LAOGHAIRE,,,IRL,
DC,2377,EXP Intermediate CareFusion Ge,MRF,49.4134903,8.707980156,HEIDELBERG,HA,66097,DEU,9/11/2019 17:01,HEIDELBERG,,,DEU,
DC,3176,DC CN SH FTZ UNBONDED,MRF,31.23036957,121.4737015,SHANGHAI,CA,66497,CHN,9/11/2019 17:01,SHANGHAI,,,CHN,
DC,2411,EXP CareFusion Belgium,MRF,50.92108154,4.055130005,Erembodegem,TX,66897,BEL,9/11/2019 17:01,Erembodegem,,,BEL,
DC,3358,DC IN AHMEDABAD,MRF,23.02776909,72.60025024,Ahmedabad,AZ,67297,IND,9/11/2019 17:01,Ahmedabad,,,IND,
DC,2290,EXP GB MRF HOLDINGS LTD,MRF,53.29359818,-6.13465023,DUN LAOGHAIRE,AR,67697,IRL,9/11/2019 17:01,DUN LAOGHAIRE,,,IRL,
DC,2232,EXP GB UNITED KINGDOM,MRF,51.75629044,-1.25951004,Oxford,OH,68097,GBR,9/11/2019 17:01,Oxford,,,GBR,
DC,2310,EXP ZM MRF Zambia,MRF,-26.04319954,28.06967926,WOODMEAD,CA,68497,ZAF,9/11/2019 17:01,WOODMEAD,,,ZAF,
DC,3032,DC TW,MRF,25.03737068,121.5635529,Taipei,FL,68897,TWN,9/11/2019 17:01,Taipei,,,TWN,
DC,3340,DC AU SYDNEY (3PL),MRF,-33.84117889,150.8539581,KEMPS CREEK,NH,69297,AUS,9/11/2019 17:01,KEMPS CREEK,,,AUS,
DC,2241,EXP BE BELGIUM,MRF,50.92108154,4.055130005,Erembodegem,NW,69697,BEL,9/11/2019 17:01,Erembodegem,,,BEL,
DC,2409,EXP Dispensing Denmark,MRF,55.76736832,12.5074501,Lyngby,HA,70097,DNK,9/11/2019 17:01,Lyngby,,,DNK,
DC,2240,EXP GR GREECE,MRF,37.97613907,23.7364006,Athens,CA,70497,GRC,9/11/2019 17:01,Athens,,,GRC,
DC,2286,EXP BV MRF Intl - CEE,MRF,50.92108154,4.055130005,Erembodegem,TX,70897,BEL,9/11/2019 17:01,Erembodegem,,,BEL,
DC,2243,EXP NL INFUSION THERAPY,MRF,51.58769989,4.651070118,Etten-Leur,AZ,71297,NLD,9/11/2019 17:01,Etten-Leur,,,NLD,
DC,2238,EXP AT AUSTRIA,MRF,48.13985825,16.47717094,Schwechat,AR,71697,AUT,9/11/2019 17:01,Schwechat,,,AUT,
DC,2322,EXP Intl BV- Branch HQ,MRF,50.92108154,4.055130005,Erembodegem,OH,72097,BEL,9/11/2019 17:01,Erembodegem,,,BEL,
DC,2427,Chloraprep NL Nijmegen,MRF,51.83549881,5.79557991,Nijmegen,CA,72497,NLD,9/11/2019 17:01,Nijmegen,,,NLD,
DC,2255,Consignment France,MRF,45.12440109,5.697659969,LE PONT DE CLAIX,FL,72897,FRA,9/11/2019 17:01,LE PONT DE CLAIX,,,FRA,
DC,2384,Pharma distri,MRF,51.83549881,5.79557991,Nijmegen,NH,73297,NLD,9/11/2019 17:01,Nijmegen,,,NLD,
DC,3167,CHN - APS CHINA BP,MRF,31.23036957,121.4737015,SHANGHAI,NW,73697,CHN,9/11/2019 17:01,SHANGHAI,,,CHN,
DC,2297,EDC - EUROPEAN DISTRIBUTION CE,MRF,51.14384079,4.860050201,OLEN,HA,74097,BEL,9/11/2019 17:01,OLEN,,,BEL,
DC,3033,MRF West Africa owned inventory,MRF,7.622841835,-5.552559853,ABIDJAN 01,CA,74497,CIV,9/11/2019 17:01,ABIDJAN 01,,,CIV,
DC,2333,AUSTRALIA LOCAL WAREHOUSE,MRF,-33.8093311,151.185647,Artarmon,TX,74897,AUS,9/11/2019 17:01,Artarmon,,,AUS,
DC,3351,Chloraprep UK Insight,MRF,51.80142975,-0.205730006,WELWYN GARDEN CITY,AZ,75297,GBR,9/11/2019 17:01,WELWYN GARDEN CITY,,,GBR,
DC,2296,Consignment Ireland,MRF,53.24858475,-6.385725975,DUBLIN 24,AR,75697,IRL,9/11/2019 17:01,DUBLIN 24,,,IRL,
DC,2480,NEW ZEALAND WAREHOUSE,MRF,51.14384079,4.860050201,OLEN,OH,76097,BEL,9/11/2019 17:01,OLEN,,,BEL,
DC,2395,MRF Swiss - Flex Hungary,MRF,47.49972153,19.05508041,Budapest,CA,76497,HUN,9/11/2019 17:01,Budapest,,,HUN,
DC,4096,JAPAN,MRF,35.68407822,139.8088531,Tokyo,FL,76897,JPN,9/11/2019 17:01,Tokyo,,,JPN,
Factory,2299,1037 Sterigenics MX,MRF,23.94062042,-102.5251389,Cuautitl?n Izcalli Mexico,NH,77297,MEX,9/11/2019 17:01,Cuautitl?n Izcalli Mexico,,,MEX,
Factory,2330,Plant WH: Heidelberg Germany,MRF,49.4134903,8.707980156,HEIDELBERG,NW,77697,DEU,9/19/2019 9:01,HEIDELBERG,,,DEU,
Factory,2418,Plant WH: Helsingborg,MRF,56.04181671,12.73036194,HELSINGBORG,HA,78097,SWE,9/19/2019 9:01,HELSINGBORG,,,SWE,
Factory,3178,Plant WH: Fraga Spain,MRF,40.38769531,-3.557390928,FRAGA-HUESCA,CA,78497,ESP,9/19/2019 9:01,FRAGA-HUESCA,,,ESP,
Factory,2260,CFN Plant Bosnia,MRF,44.9658699,15.92638969,Cazin,TX,78897,BIH,9/19/2019 9:01,Cazin,,,BIH,
Factory,2236,1010 STERIGENICS  DK,MRF,55.99296951,12.5599699,Espergaerde,AZ,79297,DNK,9/11/2019 17:01,Espergaerde,,,DNK,
DC,2242,Plant WH: Tatabanya MRFB,MRF,47.54756927,18.3312397,KORNYE,AR,79697,HUN,9/19/2019 9:01,KORNYE,,,HUN,
Factory,2230,Plant WH: Drogheda Ireland,MRF,53.71598816,-6.356770039,Drogheda,OH,80097,IRL,9/19/2019 9:01,Drogheda,,,IRL,
Factory,2434,Verviers,MRF,50.59177017,5.859469891,Verviers,CA,80497,BEL,9/11/2019 17:01,Verviers,,,BEL,
Factory,2398,Plant WH: Maxime,MRF,50.92108154,4.055130005,Erembodegem,FL,80897,BEL,9/19/2019 9:01,Erembodegem,,,BEL,
Factory,2298,Sterigenics Rantigny,MRF,49.33023834,2.440550089,Rantigny,NH,81297,FRA,9/11/2019 17:01,Rantigny,,,FRA,
Factory,2420,Plant WH; South Africa,MRF,-26.20491028,28.04006004,JOHANNESBURG,NW,81697,ZAF,9/19/2019 9:01,JOHANNESBURG,,,ZAF,
Factory,2143,Transport Perrier po,MRF,46.13716888,5.55189991,Saint martin du Fr?ne,HA,82097,FRA,9/11/2019 17:01,Saint martin du Fr?ne,,,FRA,
Factory,3361,JB Tecnics Molinges,MRF,46.35699844,5.765659809,Molinges,CA,82497,FRA,9/11/2019 17:01,Molinges,,,FRA,
Factory,2259,Ionisos Dagneux Ster,MRF,45.85079956,5.07558012,Dagneux,TX,82897,FRA,9/11/2019 17:01,Dagneux,,,FRA,
Factory,2272,MFG HU Tatabanya Hypak,MRF,47.54756927,18.3312397,K?rnye,AZ,83297,HUN,9/11/2019 17:01,K?rnye,,,HUN,
Factory,2412,Plant WH: Plymouth,MRF,50.37617111,-4.136630058,PLYMOUTH,AR,83697,GBR,9/19/2019 9:01,PLYMOUTH,,,GBR,
Factory,3090,Wiehl,MRF,50.94832993,7.548319817,Wiehl,OH,84097,DEU,9/11/2019 17:01,Wiehl,,,DEU,
DC,3343,MRF PPM PLANT,MRF,-20.9175738,142.7027956,QUEENSLAND,CA,84497,AUS,9/19/2019 9:01,QUEENSLAND,,,AUS,
Factory,2318,Subcontractor Laperr,MRF,46.29573822,5.682069778,Arbent,FL,84897,FRA,9/11/2019 17:01,Arbent,,,FRA,
Factory,3141,France - MRF Aguettant plant,MRF,46.62184143,2.451944113,CHANPAGNE SUR RHONE,NH,85297,FRA,9/19/2019 9:01,CHANPAGNE SUR RHONE,,,FRA,
Factory,2257,Sterigenics Wiesbade,MRF,50.08465958,8.242139816,Wiesbaden,NW,85697,DEU,9/11/2019 17:01,Wiesbaden,,,DEU,
Factory,2245,Plant WH: Visitec UK,MRF,53.9438324,-2.550564051,"BIDFORD ON AVON,WARKS",HA,86097,GBR,9/19/2019 9:01,"BIDFORD ON AVON,WARKS",,,GBR,
Factory,2417,Plant WH: Swindon UK,MRF,53.9438324,-2.550564051,"SWINDON, WILTSHIRE",CA,86497,GBR,9/19/2019 9:01,"SWINDON, WILTSHIRE",,,GBR,
Factory,2292,SYNERGY sterilizer,MRF,51.56175995,-1.781810045,Swindon,TX,86897,GBR,9/11/2019 17:01,Swindon,,,GBR,
Factory,2423,Ionisos Sabl? sur Sa,MRF,47.84025955,-0.333409995,Sabl? sur Sarthe,AZ,87297,FRA,9/11/2019 17:01,Sabl? sur Sarthe,,,FRA,
Factory,2401,Plant WH: Plattling Germany,MRF,49.59794998,11.00257969,ERLANGEN,AR,87697,DEU,9/19/2019 9:01,ERLANGEN,,,DEU,
Factory,2248,Plant WH: Fraga Spain Sterilis.,MRF,40.38769531,-3.557390928,FRAGA HUESCA,OH,88097,ESP,9/19/2019 9:01,FRAGA HUESCA,,,ESP,
Factory,2301,MFG FR Le Pont de Claix,MRF,45.12440109,5.697659969,LE PONT DE CLAIX,CA,88497,FRA,9/11/2019 17:01,LE PONT DE CLAIX,,,FRA,
Factory,2307,Plant WH: Difco UK,MRF,49.12082672,-122.853096,SURREY,FL,88897,GBR,9/19/2019 9:01,SURREY,,,GBR,
Factory,3091,"Plant WH: San Agustin, Spain",MRF,40.38769531,-3.557390928,SAN AUGUSTIN DE GUADALIX,NH,89297,ESP,9/19/2019 9:01,SAN AUGUSTIN DE GUADALIX,,,ESP,
DC,2291,Consignment Poland,MRF,51.759048,19.458599,LODZ,NW,89697,POL,1/15/2020 20:31,LODZ,,,POL,
Factory,2053,CFN Plant Italy Villamarzana,MRF,45.01424026,11.69332027,VILLAMARZANA,HA,90097,ITA,9/19/2019 9:01,VILLAMARZANA,,,ITA,
Factory,2304,Sterigenics Health M,MRF,46.62184143,2.451944113,Marseille Cedex 14,CA,75252,FRA,9/11/2019 17:01,Marseille Cedex 14,,,FRA,
Factory,2282,Plant WH: Dun Laoghaire Ireland,MRF,53.18498611,-8.146889687,DUN LOAGHAIRE,TX,75235,IRL,9/19/2019 9:01,DUN LOAGHAIRE,,,IRL,
Factory,3363,Plant WH: Kiestra,MRF,53.10282898,6.09856987,Drachten,AZ,75218,NLD,9/19/2019 9:01,Drachten,,,NLD,
Factory,2293,MFG ES San Agustin,MRF,40.6959314,-3.6101687,San Agustin del Guadalix,HA,75201,ESP,9/11/2019 17:01,San Agustin del Guadalix,28,28,ESP,
Factory,2379,MFG GB Swindon,MRF,51.56175995,-1.781810045,Swindon,CA,75184,GBR,9/11/2019 17:01,Swindon,Swindon,Swindon,GBR,
Factory,2319,MFG CN SUZHOU 1,MRF,31.37859344,120.656456,Suzhou,TX,75167,CHN,9/11/2019 17:01,Suzhou,Suzhou,Suzhou,CHN,
Factory,2400,MFG JP FUKUSHIMA,MRF,37.74317932,140.4853973,Fukushima,AZ,75150,JPN,9/11/2019 17:01,Fukushima,Fukushima,Fukushima,JPN,
Factory,2432,MFG BR Curitiba,MRF,-25.531793,-49.315358,CURITIBA,AR,75133,BRA,9/11/2019 17:01,CURITIBA,Curitiba,Curitiba,BRA,
Factory,2396,MFG IE GENCELL 2270,MRF,52.66098022,-8.632590294,LIMERICK,OH,75116,IRL,10/31/2019 9:01,LIMERICK,LI,LI,IRL,
Factory,2410,BOC REYNOSA-MXP,MRF,26.07829857,-98.2853775,PHARR,CA,75099,,9/11/2019 17:01,PHARR,TX,TX,,
Factory,2249,MFG IE Dun Laoghaire (Penel),MRF,53.18498611,-8.146889687,Dun Lao,FL,75082,IRL,9/11/2019 17:01,Dun Lao,Dun Lao,Dun Lao,IRL,
Factory,2407,MFG CA Quebec City,MRF,46.81272888,-71.21929932,Quebec,NH,75065,CAN,9/11/2019 17:01,Quebec,QC,QC,CAN,
Factory,2380,MFG BA CAREFUSION 2931,MRF,44.9658699,15.92638969,Cazin,NW,75048,BIH,10/31/2019 9:01,Cazin,BA,BA,BIH,
Factory,2311,MFG UK BIDFORD BVI 2051,MRF,52.16766739,-1.857646942,BIDFORD ON AVON,HA,75031,GBR,10/31/2019 9:01,BIDFORD ON AVON,WA,WA,GBR,
Factory,2280,EXP ES SPAIN,MRF,40.38769531,-3.557390928,San Agustin,CA,75014,ESP,9/11/2019 17:01,San Agustin,San Agustin,San Agustin,ESP,
Factory,2251,MFG CN SUZHOU 2,MRF,31.37859344,120.656456,Suzhou,TX,74997,CHN,9/11/2019 17:01,Suzhou,Suzhou,Suzhou,CHN,
Factory,2378,MFG FR PPH PONT DE CLAIX 2281,MRF,45.12440109,5.697659969,LE PONT DE CLAIX,AZ,74980,FRA,10/31/2019 9:01,LE PONT DE CLAIX,38,38,FRA,
Factory,2422,San Luis Potosi,MRF,22.15270042,-100.9766312,San Luis Potosi,AR,74963,MEX,9/11/2019 17:01,San Luis Potosi,Villa de Reyes,Villa de Reyes,MEX,
Factory,3350,MFG IE DROGHEDA INSULIN 2142,MRF,53.71598816,-6.356770039,Drogheda,OH,74946,IRL,10/31/2019 9:01,Drogheda,LT,LT,IRL,
Factory,2237,MFG SG MRFB,MRF,1.290179968,103.8519897,SINGAPORE,CA,74929,SGP,9/11/2019 17:01,SINGAPORE,SG,SG,SGP,
Factory,2320,MFG SG YISHUN 3089,MRF,1.290179968,103.8519897,SINGAPORE,FL,74912,SGP,10/31/2019 9:01,SINGAPORE,SG,SG,SGP,
Factory,2314,MFG NL Drachten,MRF,52.34225845,5.528157234,Drachten,NH,74895,NLD,9/11/2019 17:01,Drachten,Drachten,Drachten,NLD,
Factory,2231,MFG DE Heidelberg,MRF,49.4134903,8.707980156,HEIDELBERG,NW,74878,DEU,9/11/2019 17:01,HEIDELBERG,Heidelberg,Heidelberg,DEU,
Factory,2404,MFG IE DUN LAOGHAIRE INSULIN 2044,MRF,53.29359818,-6.13465023,DUN LAOGHAIRE,HA,74861,IRL,10/31/2019 9:01,DUN LAOGHAIRE,DB,DB,IRL,
Factory,2406,MFG MX PPE,MRF,19.64209938,-99.247612,"Cuautitl?n, Izcalli",CA,74844,MEX,9/11/2019 17:01,"Cuautitl?n, Izcalli",MEX,MEX,MEX,
Factory,2308,MFG MX TIJUANA 0780,MRF,32.50193024,-116.9645538,TIJUANA,TX,74827,MEX,10/13/2019 7:41,TIJUANA,BC,BC,MEX,
Factory,2284,MFG FR AGUETTANT 2039,MRF,46.62184143,2.451944113,CHAMPAGNE-SUR-RHONE,AZ,74810,FRA,10/31/2019 9:01,CHAMPAGNE-SUR-RHONE,7,7,FRA,
Factory,2285,MFG EXPENSE MX Nogales,MRF,31.30167961,-110.9505463,NOGALES,AR,74793,MEX,9/11/2019 17:01,NOGALES,Nogales,Nogales,MEX,
Factory,3362,MFG IT CAREFUSION 0788,MRF,45.01424026,11.69332027,VILLAMARZANA,OH,74776,ITA,10/31/2019 9:01,VILLAMARZANA,RO,RO,ITA,
Factory,2389,MFG GB Plymouth,MRF,50.37617111,-4.136630058,PLYMOUTH,CA,74759,GBR,9/11/2019 17:01,PLYMOUTH,Plymouth,Plymouth,GBR,
Factory,2007,MFG MX Cuautitlan,MRF,19.66637993,-99.17382813,Cuautitlan,FL,74742,MEX,9/11/2019 17:01,Cuautitlan,Cuautitlan,Cuautitlan,MEX,
Factory,3174,MFG IN BAWAL,MRF,22.49311829,79.72701263,Bawal,NH,74725,IND,9/11/2019 17:01,Bawal,Bawal,Bawal,IND,
Factory,2479,MFG US Nogales,MRF,31.30167961,-110.9505463,NOGALES,NW,74708,MEX,9/11/2019 17:01,NOGALES,SON,SON,MEX,
Factory,4190,MFG IE Drogheda (Flush),MRF,53.71598816,-6.356770039,Drogheda,HA,74691,IRL,9/11/2019 17:01,Drogheda,LT,LT,IRL,
Factory,2283,MFG NZ CAREFUSION 0313,MRF,-36.9083786,174.8384399,MOUNT WELLINGTON,CA,74674,NZL,10/31/2019 9:01,MOUNT WELLINGTON,AKL,AKL,NZL,
Factory,3112,MFG BR Juiz de Fora,MRF,-21.76535034,-43.34869003,Juiz de Fora,TX,74657,BRA,9/11/2019 17:01,Juiz de Fora,Juiz de Fora,Juiz de Fora,BRA,
Factory,2253,MFG IL CAESAREA ISR02,MRF,32.51612854,34.90546036,CAESAREA,AZ,76486,ISR,10/13/2019 18:18,CAESAREA,2,2,ISR,
Factory,2252,MRF Hungary Kft.,MRF,47.54756927,18.3312397,K?rnye,AR,76894,HUN,9/11/2019 17:01,K?rnye,K?rnye,K?rnye,HUN,
Factory,2235,MFG SG TUAS,MRF,1.357570052,103.8102264,Tuas,OH,77302,SGP,9/11/2019 17:01,Tuas,Tuas,Tuas,SGP,
Factory,2258,MFG CN YIXING 3354,MRF,36.56311417,103.7358093,YIXING CITY,CA,77710,CHN,10/31/2019 9:01,YIXING CITY,100,100,CHN,
Factory,2239,MFG AU CAREFUSION 0316,MRF,-33.7755394,150.9342041,SEVEN HILLS,FL,78118,AUS,10/31/2019 9:01,SEVEN HILLS,NSW,NSW,AUS,
Factory,2408,MFG CN SUZHOU 3,MRF,31.37859344,120.656456,Suzhou,NH,78526,CHN,9/11/2019 17:01,Suzhou,Suzhou,Suzhou,CHN,
DC,2294,Virtual MRF Uruguay,MRF,-34.8741684,-56.16292953,Montevideo,NW,78934,URY,9/11/2019 17:01,Montevideo,UY,UY,URY,
DC,2254,EXP MY HCL,MRF,3.147890091,101.6940536,KUALA LUMPUR,HA,79342,MYS,9/11/2019 17:01,KUALA LUMPUR,KUL,KUL,MYS,
DC,2256,EXP SG TUAS,MRF,1.290179968,103.8519897,SINGAPORE,CA,79750,SGP,9/11/2019 17:01,SINGAPORE,SG,SG,SGP,
DC,4016,DC ID JAKARTA,MRF,-6.171480179,106.8264771,JAKARTA,TX,80158,IDN,9/11/2019 17:01,JAKARTA,ID,ID,IDN,
DC,3034,EXP SEA,MRF,1.290179968,103.8519897,SINGAPORE,AZ,80566,SGP,9/11/2019 17:01,SINGAPORE,SG,SG,SGP,
DC,3110,R&D EXP IN NEW,MRF,30.70340919,76.78942871,CHANDIGARH,AR,80974,IND,9/11/2019 17:01,CHANDIGARH,27,27,IND,
DC,2246,EXP SC MY PENANG,MRF,1.290179968,103.8519897,SINGAPORE,OH,81382,SGP,9/11/2019 17:01,SINGAPORE,SG,SG,SGP,
DC,3356,DC IN FTWZ,MRF,12.82423019,79.70114136,KANCHIPURAM,CA,81790,IND,9/11/2019 17:01,KANCHIPURAM,22,22,IND,
DC,2233,EXP VN,MRF,10.7782402,106.7032394,HO CHI MINH CITY,FL,82198,VNM,9/11/2019 17:01,HO CHI MINH CITY,VN,VN,VNM,
DC,3140,EXP CN SHANGHAI HQ,MRF,31.23036957,121.4737015,SHANGHAI,NH,82606,CHN,9/11/2019 17:01,SHANGHAI,20,20,CHN,
DC,3179,FI MX MRF Holding,MRF,23.94062042,-102.5251389,"M?xico, DF",NW,83014,MEX,9/11/2019 17:01,"M?xico, DF",DF,DF,MEX,
DC,2317,SO PE MRF DEL U PERU CC4060,MRF,-12.05613041,-77.0267868,Lima,HA,83422,PER,10/13/2019 6:45,Lima,6,6,PER,
DC,3360,DC Temse FR Le Pont de Claix,MRF,45.1230132,5.684146,Temse-Belgique,CA,83830,BEL,9/11/2019 17:01,Temse-Belgique,BE,BE,BEL,
DC,2481,SO AR MRF U ARGENTINA CC4025,MRF,-34.60848999,-58.37343979,BUENOS AIRES,TX,84238,ARG,10/13/2019 6:43,BUENOS AIRES,1,1,ARG,
DC,2390,EXP LU LUX FINANCE SARL,MRF,49.60958862,6.12969017,Luxembourg,AZ,84646,LUX,9/11/2019 17:01,Luxembourg,TX,TX,LUX,
DC,3376,SER IN DELHI ? SPARES,MRF,28.63095093,77.21727753,NEW DELHI,AR,85054,IND,9/11/2019 17:01,NEW DELHI,30,30,IND,
DC,3177,EXP AU SYDNEY,MRF,-33.79338074,151.1200256,NORTH RYDE,OH,85462,AUS,9/11/2019 17:01,NORTH RYDE,NSW,NSW,AUS,
DC,2303,EXP CN SHANGHAI,MRF,31.23036957,121.4737015,SHANGHAI,CA,85870,CHN,9/11/2019 17:01,SHANGHAI,20,20,CHN,
DC,2295,R&D EXP CN SHANGHAI,MRF,31.23036957,121.4737015,SHANGHAI,FL,86278,CHN,9/11/2019 17:01,SHANGHAI,20,20,CHN,
DC,3370,DC CA Mississauga,MRF,43.58691025,-79.6453476,Mississauga,NH,86686,CAN,9/11/2019 17:01,Mississauga,ON,ON,CAN,
DC,3372,SO MX CCA,MRF,19.43194008,-99.13314819,DISTRITO FEDERAL,NW,87094,MEX,9/11/2019 17:01,DISTRITO FEDERAL,DF,DF,MEX,
DC,2247,DC CH MRF SWITZERLAND 0789,MRF,51.83549881,5.79557991,Nijmegen,HA,87502,NLD,10/13/2019 6:44,Nijmegen,4,4,NLD,
DC,2405,EXP NZ MT.WELLINGTON,MRF,-36.85232925,174.7639008,AUCKLAND,CA,87910,NZL,9/11/2019 17:01,AUCKLAND,NZN,NZN,NZL,
DC,2387,R&D EXP SG,MRF,1.290179968,103.8519897,SINGAPORE,TX,88318,SGP,9/11/2019 17:01,SINGAPORE,SG,SG,SGP,
DC,2321,MRFIHII Plant,MRF,1.290179968,103.8519897,SINGAPORE,AZ,88726,SGP,9/11/2019 17:01,SINGAPORE,SG,SG,SGP,
DC,2263,SER AU SYDNEY,MRF,-33.79338074,151.1200256,NORTH RYDE,AR,89134,AUS,9/11/2019 17:01,NORTH RYDE,NSW,NSW,AUS,
DC,3313,EXP KR SEOUL,MRF,37.56336975,126.9930038,SEOUL,OH,89542,KOR,9/11/2019 17:01,SEOUL,SE,SE,KOR,
DC,2267,EXP MRF Switzerland Sarl,MRF,46.38056946,6.205770016,Eysins,CA,89950,CHE,9/11/2019 17:01,Eysins,ZH,ZH,CHE,
DC,2302,EXP PH,MRF,14.52939034,121.0703506,TAGUIG,FL,90358,PHL,9/11/2019 17:01,TAGUIG,PH,PH,PHL,
DC,3349,SO CL MRF U CHILE CC4030,MRF,-35.23200607,-71.21882629,"PUDAHUEL, SANTIAGO",NH,90766,CHL,10/13/2019 6:43,"PUDAHUEL, SANTIAGO",13,13,CHL,
DC,2264,EXP BR MRFI Sao Paulo,MRF,-23.56287003,-46.65467834,Sao Paulo,NW,91174,BRA,9/11/2019 17:01,Sao Paulo,SP,SP,BRA,
DC,2377,DC MRO MX Distribuidora,MRF,19.72881889,-99.22013092,Tepozotlan,HA,91582,MEX,9/11/2019 17:01,Tepozotlan,MEX,MEX,MEX,
DC,3176,DC IN KHAJURI,MRF,22.49311829,79.72701263,VILLAGE KHAJURI,CA,91990,IND,9/11/2019 17:01,VILLAGE KHAJURI,7,7,IND,
DC,2411,EXP BR MRFI LatAm Office,MRF,-23.56287003,-46.65467834,Sao Paulo,TX,92398,BRA,9/11/2019 17:01,Sao Paulo,SP,SP,BRA,
DC,3358,SO BE MRF BENELUX N.V. CC2740,MRF,50.92108154,4.055130005,Erembodegem,AZ,92806,BEL,10/13/2019 17:15,Erembodegem,8,8,BEL,
DC,2290,EXP BR Sao Paulo,MRF,-23.56287003,-46.65467834,Sao Paulo,HA,93214,BRA,9/11/2019 17:01,Sao Paulo,SP,SP,BRA,
DC,2232,WAREHOUSE-INBHIWANDIOFLOW,MRF,19.291332,73.0577378,BHIWANDI;ST-27-MH-MAHARAS,CA,93622,IND,10/20/2019 9:01,BHIWANDI;ST-27-MH-MAHARAS,IMH,IMH,IND,
DC,2310,M/S.MRF INDIA PVT,MRF,19.2971096,73.06349945,BHIWANDI,TX,94030,IND,9/11/2019 17:01,BHIWANDI,13,13,IND,
DC,3032,EXP MRF BANGLADESH,MRF,23.71323013,90.39956665,DHAKA,AZ,94438,BGD,9/11/2019 17:01,DHAKA,MRF,MRF,BGD,
DC,3340,EXP JP TOKYO,MRF,35.68407822,139.8088531,Tokyo,AR,94846,JPN,9/11/2019 17:01,Tokyo,13,13,JPN,
DC,2241,DC BR MRFI Sao Paulo,MRF,-23.53100967,-46.78623962,Osasco,OH,95254,BRA,9/11/2019 17:01,Osasco,SP,SP,BRA,
DC,2409,EXP MY,MRF,3.147890091,101.6940536,KUALA LUMPUR,CA,95662,MYS,9/11/2019 17:01,KUALA LUMPUR,KUL,KUL,MYS,
DC,2240,DC NZ AUCKLAND (3PL),MRF,-36.99943924,174.7872162,AIRPORT OAKS,FL,96070,NZL,9/11/2019 17:01,AIRPORT OAKS,NZN,NZN,NZL,
DC,2286,DC IN CHENNAI 2,MRF,13.08362007,80.28251648,,NH,96478,IND,9/11/2019 17:01,,22,22,IND,
DC,2243,SO CO MRF COLOMBIA,MRF,3.90644908,-73.07502747,CUNDINAMARCA COTA,NW,96886,COL,10/13/2019 6:43,CUNDINAMARCA COTA,CO,CO,COL,
DC,2238,DC CA Oakville,MRF,43.58691025,-79.6453476,Mississauga,HA,97294,CAN,9/11/2019 17:01,Mississauga,Ontario,Ontario,CAN,
DC,2322,EXP PT Portugal Branch,MRF,38.72639084,-9.149479866,Lisboa,CA,97702,PRT,9/11/2019 17:01,Lisboa,28,28,PRT,
DC,2427,DC CO BOGOTA,MRF,4.614960194,-74.06941223,BOGOTA,TX,98110,COL,10/13/2019 6:44,BOGOTA,11,11,COL,
DC,2255,EXP MY KLSSC,MRF,3.147890091,101.6940536,KUALA LUMPUR,AZ,98518,MYS,9/11/2019 17:01,KUALA LUMPUR,KUL,KUL,MYS,
DC,2384,EXP IN GURGAON HQ,MRF,25.4976902,82.1565094,GURGOAN,AR,98926,IND,9/11/2019 17:01,GURGOAN,7,7,IND,
DC,3167,MFT DO CAREFUSION 310,MRF,18.47184944,-69.89138794,SANTO DOMINGO,OH,99334,DOM,10/13/2019 7:37,SANTO DOMINGO,DO,DO,DOM,
DC,2297,SO IE MRF RESEARCH CENTRE IRELAND 21,MRF,52.66098022,-8.632590294,LIMERICK,CA,99742,IRL,10/31/2019 9:01,LIMERICK,LI,LI,IRL,
DC,3033,SO BR CURITIBA 4098,MRF,-25.43997955,-49.27653885,CURITIBA,FL,56497,BRA,10/31/2019 9:01,CURITIBA,PR,PR,BRA,
DC,2333,SO BO MRF U BOLIVIA CC4040,MRF,-16.49908066,-68.13378143,LA PAZ,NH,56897,BOL,10/31/2019 9:01,LA PAZ,BO,BO,BOL,
DC,3351,SO SE MRF ITH AB CC2450,MRF,59.33256912,18.06682968,STOCKHOLM,NW,57297,SWE,10/31/2019 9:01,STOCKHOLM,12,12,SWE,
DC,2296,DC CN SHANGHAI XXXX,MRF,31.23036957,121.4737015,SHANGHAI,HA,57697,CHN,10/31/2019 9:01,SHANGHAI,20,20,CHN,
DC,2480,SO BR PORTO ALEGRE 4099,MRF,-30.03392029,-51.2279892,PORTO ALEGRE,CA,58097,BRA,10/31/2019 9:01,PORTO ALEGRE,RS,RS,BRA,
DC,2395,SO IE MRF&CO HOME OFFICE CC2205,MRF,53.29359818,-6.13465023,DUN LAOGHAIRE,TX,58497,IRL,10/31/2019 9:01,DUN LAOGHAIRE,DB,DB,IRL,
DC,4096,DC BR CURITIBA 1 4095,MRF,-25.43997955,-49.27653885,CURITIBA,AZ,58897,BRA,10/31/2019 9:01,CURITIBA,PR,PR,BRA,
DC,2299,SO BR RECIFE 4101,MRF,-8.055310249,-34.8719902,RECIFE,AR,59297,BRA,10/31/2019 9:01,RECIFE,PE,PE,BRA,
DC,2330,SO GB BARD LANCING,MRF,50.8219986,-0.316960007,LANCING,OH,59697,GBR,10/31/2019 9:01,LANCING,SW,SW,GBR,
DC,2418,SO CN HONGKONG MRF ASIA CC3420,MRF,22.33308029,114.1912231,"KOWLOON BAY, KOWLOON",CA,60097,HKG,10/31/2019 9:01,"KOWLOON BAY, KOWLOON",KLN,KLN,HKG,
DC,3178,SO UY DANTOR S.A. CC4070,MRF,-34.8741684,-56.16292953,Montevideo,FL,60497,URY,10/31/2019 9:01,Montevideo,UY,UY,URY,
DC,2260,SO JP FUKUSHIMA C O KOHRI SHOJI,MRF,37.74317932,140.4853973,Fukushima,NH,60897,JPN,10/31/2019 9:01,Fukushima,7,7,JPN,
DC,2236,SO FR MRF FRANCE   DIVISION EUROPE,MRF,45.12440109,5.697659969,LE PONT DE CLAIX,NW,61297,FRA,10/31/2019 9:01,LE PONT DE CLAIX,38,38,FRA,
DC,2242,SO GT MRF DE GUATEMALA S.A. CC4560,MRF,14.63162041,-90.4675827,GUATEMALA CITY,HA,61697,GTM,10/31/2019 9:01,GUATEMALA CITY,GT,GT,GTM,
DC,2230,SO PK MRF PAKISTAN 3907,MRF,31.53944969,74.30348206,LAHORE,CA,62097,PAK,10/31/2019 9:01,LAHORE,PK,PK,PAK,
DC,2434,SO AU MRF AUTRALIA CC3200,MRF,-33.77848053,151.1255951,MACQUARIE PARK,TX,62497,AUS,10/31/2019 9:01,MACQUARIE PARK,NSW,NSW,AUS,
DC,2398,SO SG MRFWW INC. CC3010,MRF,1.290179968,103.8519897,SINGAPORE,AZ,62897,SGP,10/31/2019 9:01,SINGAPORE,SG,SG,SGP,
DC,2298,SO MX MEXICO CC4500,MRF,23.94062042,-102.5251389,MEXICO D.F.,AR,63297,MEX,10/31/2019 9:01,MEXICO D.F.,MEX,MEX,MEX,
DC,2420,SO GB MRF UK HOLDINGS CC2310,MRF,51.75629044,-1.25951004,Oxford,OH,63697,GBR,10/31/2019 9:01,Oxford,DV,DV,GBR,
DC,2143,SO GB MRF IT HOLDINGS UK CC2360,MRF,51.75629044,-1.25951004,Oxford,CA,64097,GBR,10/31/2019 9:01,Oxford,DV,DV,GBR,
DC,3361,SO GB CLONTECH UK CC2380,MRF,51.75629044,-1.25951004,Oxford,FL,64497,GBR,10/31/2019 9:01,Oxford,DV,DV,GBR,
DC,2259,SO CN MRFAL CHINA CC3410,MRF,39.90468979,116.4071732,BEIJING,NH,64897,CHN,10/31/2019 9:01,BEIJING,10,10,CHN,
DC,2272,WEST BENGAL IN,MRF,22.49311829,79.72701263,24 PARGANAS (N) KOLKATA,NW,65297,IND,10/31/2019 9:01,24 PARGANAS (N) KOLKATA,25,25,IND,
DC,2412,SO IT MRF ITALIA CC2610,MRF,45.46796036,9.181779861,MILANO,HA,65697,ITA,10/31/2019 9:01,MILANO,MI,MI,ITA,
DC,3090,SO SE MRF AB CC2400,MRF,59.33256912,18.06682968,STOCKHOLM,CA,66097,SWE,10/31/2019 9:01,STOCKHOLM,12,12,SWE,
DC,3343,DC CA MISSISSAUGA 1168,MRF,43.46643066,-79.69001007,OAKVILLE,TX,66497,CAN,10/31/2019 9:01,OAKVILLE,ON,ON,CAN,
DC,2318,SO RU MOSCOW MRF VOSTOK,MRF,55.75696182,37.61502075,MOSCOW,AZ,66897,RUS,10/31/2019 9:01,MOSCOW,50,50,RUS,
DC,3141,SO KR SEOUL MRF KOREA,MRF,37.56336975,126.9930038,SEOUL,AR,67297,KOR,10/31/2019 9:01,SEOUL,13,13,KOR,
DC,2257,DC CH MRF SWITZERLAND 0785,MRF,51.60649872,5.54460001,VEGHEL,OH,67697,NLD,10/31/2019 9:01,VEGHEL,7,7,NLD,
DC,2245,DC CN YIXING 3355,MRF,36.56311417,103.7358093,YIXING CITY,CA,68097,CHN,10/31/2019 9:01,YIXING CITY,100,100,CHN,
DC,2417,DC CH MRF SWITZERLAND 0785,MRF,46.38056946,6.205770016,Eysins,FL,68497,CHE,10/31/2019 9:01,Eysins,VD,VD,CHE,
DC,2292,SO DE MRF HOLDINGS GmbH  2234,MRF,49.4134903,8.707980156,HEIDELBERG,NH,68897,DEU,10/31/2019 9:01,HEIDELBERG,1,1,DEU,
DC,2423,SO IE MRF&CO SHANNON CC2210,MRF,53.29359818,-6.13465023,DUN LAOGHAIRE,NW,69297,IRL,10/31/2019 9:01,DUN LAOGHAIRE,DB,DB,IRL,
DC,2401,SO ID MRFAL INDONESIA 3170,MRF,-6.171480179,106.8264771,JAKARTA,HA,69697,IDN,10/31/2019 9:01,JAKARTA,1,1,IDN,
DC,2248,INACTIVE MRF MED GmbH CC2560,MRF,49.4134903,8.707980156,HEIDELBERG,CA,70097,DEU,10/31/2019 9:01,HEIDELBERG,8,8,DEU,
DC,2301,MEXICO PLANT C O AEROPUERTO DF,MRF,28.31669998,-106.8170013,MEXICO,TX,70497,MEX,10/31/2019 9:01,MEXICO,MEX,MEX,MEX,
DC,2307,DC INDIA CHENNAI,MRF,13.08362007,80.28251648,Chennai,AZ,70897,IND,10/31/2019 9:01,Chennai,22,22,IND,
DC,3091,SO DE MRF GMBH CC2500,MRF,49.4134903,8.707980156,HEIDELBERG,AR,71297,DEU,10/31/2019 9:01,HEIDELBERG,1,1,DEU,
DC,2291,SO SK MRF SLOVAKIA 2956,MRF,48.14923859,17.10699081,Bratislava,OH,71697,SVK,10/31/2019 9:01,Bratislava,1,1,SVK,
DC,2053,SO GB DIFCO UK CC2340,MRF,51.75629044,-1.25951004,Oxford,CA,72097,GBR,10/31/2019 9:01,Oxford,DV,DV,GBR,
DC,2304,SO IE MRF RESEARCH CENTRE IRELAND 21,MRF,52.66098022,-8.632590294,LIMERICK,FL,72497,IRL,10/31/2019 9:01,LIMERICK,LI,LI,IRL,
DC,2282,SO IE INSULIN IRISH SHANNON CC2215,MRF,53.29359818,-6.13465023,DUN LAOGHAIRE,NH,72897,IRL,10/31/2019 9:01,DUN LAOGHAIRE,DB,DB,IRL,
DC,3363,SO BR RIBEIRAO PRETO 4102,MRF,-21.17699051,-47.80780029,RIBEIRAO PRETO,NW,73297,BRA,10/31/2019 9:01,RIBEIRAO PRETO,SP,SP,BRA,
DC,2293,SO NL MRF BV CC2720,MRF,52.34225845,5.528157234,APLHEN AAN DEN RIJN,HA,73697,NLD,10/31/2019 9:01,APLHEN AAN DEN RIJN,7,7,NLD,
DC,2379,SO IE FINANCE BV SHANNON CC2730,MRF,53.29359818,-6.13465023,DUN LAOGHAIRE,CA,74097,IRL,10/31/2019 9:01,DUN LAOGHAIRE,DB,DB,IRL,
DC,2319,SO UK MRF UK CC2300,MRF,51.75629044,-1.25951004,Oxford,TX,74497,GBR,10/31/2019 9:01,Oxford,OX,OX,GBR,
DC,2400,SO SE MRF IT AB CC2430,MRF,56.04181671,12.73036194,HELSINGBORG,AZ,74897,SWE,10/31/2019 9:01,HELSINGBORG,19,19,SWE,
DC,2432,DC BE TEMSE 3,MRF,51.12475967,4.214290142,Temse,AR,75297,BEL,10/31/2019 9:01,Temse,8,8,BEL,
DC,2396,DC JP CLONTECH 3134,MRF,36.65333557,137.9816895,"KOTO-KU, TOKYO-TO",OH,75697,JPN,10/31/2019 9:01,"KOTO-KU, TOKYO-TO",13,13,JPN,
DC,2410,SO IE SHANNON MRF PENEL IRISH CC2220,MRF,53.34806824,-6.248270035,CO. DUBLIN,CA,76097,IRL,10/31/2019 9:01,CO. DUBLIN,DB,DB,IRL,
DC,2249,SO UK PLASSO TECHNOLOGY CC2390,MRF,53.38311005,-1.464540005,SHEFFIELD,FL,76497,GBR,10/31/2019 9:01,SHEFFIELD,YS,YS,GBR,
DC,2407,SO PY MRF DEL U PARAGUAY,MRF,-25.29737091,-57.6277504,ASUNCION,NH,76897,PRY,10/31/2019 9:01,ASUNCION,PY,PY,PRY,
DC,2380,INACTIVE MFG CN WAI GAO,MRF,22.33308029,114.1912231,"TSIMSHATSUI, KOWLOON",NW,77297,HKG,10/31/2019 9:01,"TSIMSHATSUI, KOWLOON",HK,HK,HKG,
DC,2311,SO GB MRF UK CC2305,MRF,51.75629044,-1.25951004,Oxford,HA,77697,GBR,10/31/2019 9:01,Oxford,DV,DV,GBR,
DC,2280,NIPPON MRF CO. LTD.,MRF,35.60447693,139.7485809,SHINAGAWA-KU,CA,78097,JPN,10/31/2019 9:01,SHINAGAWA-KU,13,13,JPN,
DC,2251,SO UAE MRF UNITED ARAB EMIRATES,MRF,25.26951027,55.30884171,DUBAI,TX,78497,ARE,10/31/2019 9:01,DUBAI,AE,AE,ARE,
DC,2378,SO BE MRFFRA BELGIUM BRANCH CC2700,MRF,50.92108154,4.055130005,Erembodegem,AZ,78897,BEL,10/31/2019 9:01,Erembodegem,8,8,BEL,
DC,2422,DC CN PUDONG NEW DISTRICT 0524,MRF,31.22113991,121.5440903,PUDONG NEW DISTRICT,CA,79297,CHN,10/31/2019 9:01,PUDONG NEW DISTRICT,20,20,CHN,
DC,3350,SO BR SALVADOR 4104,MRF,-12.9864502,-38.52259064,SALVADOR,FL,79697,BRA,10/31/2019 9:01,SALVADOR,BA,BA,BRA,
DC,2237,SO DE MRF IT GmbH CC2540,MRF,48.77830124,12.87123013,PLATTLING,NH,80097,DEU,10/31/2019 9:01,PLATTLING,7,7,DEU,
DC,2320,SO BR BELO HORIZONTE 4097,MRF,-19.91951942,-43.9383316,BELO HORIZONTE,NW,80497,BRA,10/31/2019 9:01,BELO HORIZONTE,MG,MG,BRA,
DC,2314,SO NL MRF B.V. FINANCE CC2730,MRF,52.34225845,5.528157234,APLHEN AAN DEN RIJN,HA,80897,NLD,10/31/2019 9:01,APLHEN AAN DEN RIJN,7,7,NLD,
DC,2231,SO FR PARIS,MRF,45.12440109,5.697659969,LE PONT DE CLAIX,CA,81297,FRA,10/31/2019 9:01,LE PONT DE CLAIX,38,38,FRA,
DC,2404,SO BR RIO DE JANEIRO 4103,MRF,-22.91216087,-43.17501068,RIO DE JANEIRO,TX,81697,BRA,10/31/2019 9:01,RIO DE JANEIRO,RJ,RJ,BRA,
DC,2406,SO CN MRF MEDICAL CC3405,MRF,31.23036957,121.4737015,SHANGHAI,AZ,82097,CHN,10/31/2019 9:01,SHANGHAI,10,10,CHN,
DC,2308,SO VE MRF DE VENEZUELA CC4550,MRF,7.156984806,-66.22324371,MUN CHACAO MIRANDO,CA,82497,VEN,10/31/2019 9:01,MUN CHACAO MIRANDO,MIR,MIR,VEN,
DC,2284,SO IE MRF PENEL HOME OFFICE CC2265,MRF,53.29359818,-6.13465023,DUN LAOGHAIRE,FL,82897,IRL,10/31/2019 9:01,DUN LAOGHAIRE,DB,DB,IRL,
DC,2285,MRF DIAGNOSTICS GENEOHM 1978,MRF,46.81272888,-71.21929932,Quebec,NH,83297,CAN,10/31/2019 9:01,Quebec,QC,QC,CAN,
DC,3362,SO IE MRF INSULIN HOME OFFICE CC2255,MRF,53.29359818,-6.13465023,DUN LAOGHAIRE,NW,83697,IRL,10/31/2019 9:01,DUN LAOGHAIRE,DB,DB,IRL,
DC,2389,SO NL MRF CIS BV 2244,MRF,51.59189987,4.815979958,BREDA,HA,84097,NLD,10/31/2019 9:01,BREDA,7,7,NLD,
Factory,2007,LOUISVILLE SERVICE AND REPAIR,MRF,39.97729111,-105.1321182,LOUISVILLE,CA,84497,USA,9/11/2019 17:01,LOUISVILLE,CO,CO,USA,
Factory,3174,BOC - NOGALES,MRF,31.33782959,-110.9400635,NOGALES,TX,84897,USA,9/11/2019 17:01,NOGALES,AZ,AZ,USA,
Factory,2479,LSP-BARDPUERTORICO,MRF,18.15147018,-65.82337189,HUMACAO,AZ,85297,USA,9/11/2019 17:01,HUMACAO,PR,PR,USA,
DC,4190,BRD-GDCDISTRIBUTION,MRF,33.5968399,-83.86164093,COVINGTON,GA,85697,USA,9/11/2019 17:01,COVINGTON,GA,GA,USA,
Factory,2283,DEL-DELRAN,MRF,40.01302338,-74.94742584,DELRAN,NJ,86097,USA,9/11/2019 17:01,DELRAN,NJ,NJ,USA,
DC,3112,BMD-COVINGTON,MRF,33.5968399,-83.86164093,COVINGTON,GA,86497,USA,9/11/2019 17:01,COVINGTON,GA,GA,USA,
Factory,2253,BEP-RETURN-LOWELL,MRF,42.64588165,-71.31284332,LOWELL,MA,86897,USA,9/11/2019 17:01,LOWELL,MA,MA,USA,
Factory,2252,MCK-MONCKSCORNER,MRF,33.19672012,-80.01244354,MONCKS CORNER,SC,87297,USA,9/11/2019 17:01,MONCKS CORNER,SC,SC,USA,
Factory,2235,GFL-RETURNS-GLENSFALLS,MRF,43.3769989,-73.61499786,QUEENSBURY,NY,87697,USA,9/11/2019 17:01,QUEENSBURY,NY,NY,USA,
Factory,2258,"BUD-SOURCETECH,CHICAGO",MRF,41.91590118,-88.12055969,CAROL STREAM,IL,88097,USA,9/11/2019 17:01,CAROL STREAM,IL,IL,USA,
Factory,2239,BMD-COVINGTONSTERILIZATION,MRF,33.5968399,-83.86164093,COVINGTON,GA,88497,USA,9/11/2019 17:01,COVINGTON,GA,GA,USA,
Factory,2408,MRF COLUMBUS PLANT,MRF,39.9611755,-82.9987942,COLUMBUS,NE,88897,USA,9/19/2019 9:01,COLUMBUS,NE,NE,USA,
Factory,2294,BUD-BRACHYTHERAPY,MRF,33.5968399,-83.86164093,COVINGTON,GA,89297,USA,9/11/2019 17:01,COVINGTON,GA,GA,USA,
Factory,2254,IRVINE,MRF,33.68730164,-117.8259125,IRVINE,CA,89697,USA,9/11/2019 17:01,IRVINE,CA,CA,USA,
Factory,2256,BRIDGERBIOMED,MRF,45.67934036,-111.0322189,BOZEMAN,MT,90097,USA,9/11/2019 17:01,BOZEMAN,MT,MT,USA,
Factory,4016,BRD - LOUISVILLE,MRF,39.97729111,-105.1321182,LOUISVILLE,CO,80027,USA,9/11/2019 17:01,LOUISVILLE,CO,CO,USA,
Factory,3034,BAS - SALT LAKE CITY,MRF,40.7820687,-112.0291114,SALT LAKE CITY,UT,84116,USA,9/11/2019 17:01,SALT LAKE CITY,UT,UT,USA,
Factory,3110,WOB-WOBURN,MRF,42.47922134,-71.15061188,WOBURN,MA,1801,USA,9/11/2019 17:01,WOBURN,MA,MA,USA,
Factory,2246,GFL-MANUFACTURING,MRF,43.3769989,-73.61499786,QUEENSBURY,NY,12804,USA,9/11/2019 17:01,QUEENSBURY,NY,NY,USA,
Factory,3356,MFG US MANNFORD 0307,MRF,36.12694931,-96.36026001,MANNFORD,OK,74044-3034,USA,10/13/2019 6:43,MANNFORD,OK,OK,USA,
Factory,2233,MFG US Grayson,MRF,33.86193,-83.9777,Grayson,GA,30017-1538,USA,11/3/2019 20:22,Grayson,GA,GA,USA,
DC,3140,DC US COVINGTON XXXX,MRF,39.08398056,-84.51026917,COVINGTON,GA,30014-1497,USA,10/13/2019 6:56,COVINGTON,GA,GA,USA,
Factory,3179,MFG US SALT LAKE CITY 3600,MRF,40.76031113,-111.8882217,SALT LAKE CITY,UT,84116-3738,USA,10/25/2019 13:44,SALT LAKE CITY,UT,UT,USA,
DC,2317,R&D EXP US RTP,MRF,35.90830994,-78.8622818,Research Triangle Park,NC,27709-0003,USA,9/11/2019 17:01,Research Triangle Park,NC,NC,USA,
DC,3360,DC US San Diego FTZ Dispensing,MRF,32.71567917,-117.1617126,San Diego,CA,92154,USA,9/11/2019 17:01,San Diego,CA,CA,USA,
DC,2481,MRF BIOSCIENCES BIOIMAGING SYSTEMS,MRF,39.08195114,-77.15119171,ROCKVILLE,MD,20850-6365,USA,10/31/2019 9:01,ROCKVILLE,MD,MD,USA,
DC,2390,"SO US CLONTECH LABORATORIES, INC.",MRF,37.44466019,-122.1607895,PALO ALTO,CA,94303-0000,USA,10/31/2019 9:01,PALO ALTO,CA,CA,USA,
DC,3376,HDQ US Franklin Lakes,MRF,41.02032089,-74.20005798,Franklin Lakes,NJ,07417-1815,USA,9/11/2019 17:01,Franklin Lakes,NJ,NJ,USA,
DC,3177,HDQ DL US Billerica,MRF,42.56352997,-71.27098846,Billerica,MA,01821-3487,USA,9/11/2019 17:01,Billerica,MA,MA,USA,
DC,2303,EXP US San Diego Torrey View,MRF,32.71567917,-117.1617126,San Diego,CA,92130-2622,USA,9/11/2019 17:01,San Diego,CA,CA,USA,
DC,2295,DC US INDIANAPOLIS 1025,MRF,39.76691055,-86.14996338,INDIANAPOLIS,IN,46268-4179,USA,10/31/2019 9:01,INDIANAPOLIS,IN,IN,USA,
DC,3370,EXP US FL Enterprise,MRF,41.02032089,-74.20005798,Franklin Lakes,NJ,07417-1815,USA,9/11/2019 17:01,Franklin Lakes,NJ,NJ,USA,
DC,3372,MARKED FOR DELETION MFG US WALTHAM,MRF,42.37646866,-71.23516846,WALTHAM,MA,02452-8405,USA,10/31/2019 9:01,WALTHAM,MA,MA,USA,
DC,2247,DC US Nogales,MRF,31.34863,-110.9663,NOGALES,AZ,85621-2408,USA,9/11/2019 17:01,NOGALES,AZ,AZ,USA,
DC,2405,MEXICO PLANT C O LAREDO (US),MRF,27.53092003,-99.50222778,LAREDO,TX,78044-0000,USA,10/31/2019 9:01,LAREDO,TX,TX,USA,
DC,2387,IP US TriPath Oncology,MRF,35.53935242,-79.18537903,,NC,27032-8368,USA,9/11/2019 17:01,,NC,NC,USA,
DC,2321,SO US MRF ELASTIC HEALTH SUPPORT,MRF,40.73197174,-74.17420959,NEWARK,DE,19702-3353,USA,10/31/2019 9:01,NEWARK,DE,DE,USA,
DC,2263,INACTIVATE SO US MRF CRITICAL CARE,MRF,40.57012939,-111.8954697,SANDY,UT,84070-3213,USA,10/31/2019 9:01,SANDY,UT,UT,USA,
DC,3313,EXP NL GLOBAL HOLDINGS II,MRF,39.74023056,-75.55084229,Wilmington,DE,19801,USA,9/11/2019 17:01,Wilmington,DE,DE,USA,
DC,2267,SSC US NASSC San Antonio TX,MRF,29.42457962,-98.49461365,San Antonio,TX,78249-3460,USA,9/11/2019 17:01,San Antonio,TX,TX,USA,
DC,2302,DC US CHINO 9024,MRF,34.01335144,-117.6893311,CHINO,CA,91710-9218,USA,10/31/2019 9:01,CHINO,CA,CA,USA,
DC,3349,EXP NL GLOBAL HOLDINGS III,MRF,39.74023056,-75.55084229,Wilmington,DE,19801,USA,9/11/2019 17:01,Wilmington,DE,DE,USA,
DC,2264,SER US Baltimore,MRF,39.53253174,-76.64615631,Sparks,MD,21152-9212,USA,9/11/2019 17:01,Sparks,MD,MD,USA,
DC,2377,SO PR LAS PIEDRAS TEXTILES 1975,MRF,18.18252945,-65.86530304,LAS PIEDRAS,PR,00771-2007,USA,10/31/2019 9:01,LAS PIEDRAS,PR,PR,USA,
DC,3176,DC US Solutions Plainfield,MRF,39.70439148,-86.39775848,Plainfield,IN,46168-7933,USA,9/11/2019 17:01,Plainfield,IN,IN,USA,
DC,2411,HDQ DL US Billerica,MRF,42.56352997,-71.27098846,Billerica,MA,01821-3487,USA,10/31/2019 9:01,Billerica,MA,MA,USA,
DC,3358,DC US Solutions Four Oaks,MRF,35.4439888,-78.42899323,Four Oaks,NC,27524-7228,USA,9/11/2019 17:01,Four Oaks,NC,NC,USA,
DC,2290,CANCELLED SO US PHARMINGEN CTT,MRF,32.84265137,-117.2722015,LA JOLLA,CA,92037-0000,USA,10/31/2019 9:01,LA JOLLA,CA,CA,USA,
DC,2232,DC US Solutions Redlands,MRF,34.05538177,-117.1825867,Redlands,CA,92374-5008,USA,9/11/2019 17:01,Redlands,CA,CA,USA,
DC,2310,VIRTUAL US Med Safe Systems,MRF,33.19715118,-117.3805771,Oceanside,CA,92056-3511,USA,10/31/2019 9:01,Oceanside,CA,CA,USA,
DC,3032,MRF FL VENDOR FOR VIRTUAL PLANT,MRF,41.02032089,-74.20005798,Franklin Lakes,NJ,07417-1815,USA,10/31/2019 9:01,Franklin Lakes,NJ,NJ,USA,
DC,3340,DC US Plainfield IN,MRF,39.70439148,-86.39775848,Plainfield,IN,46168-7933,USA,9/11/2019 17:01,Plainfield,IN,IN,USA,
DC,2241,SSC US NASSC San Antonio TX,MRF,29.42457962,-98.49461365,San Antonio,TX,78249-3460,USA,10/31/2019 9:01,San Antonio,TX,TX,USA,
DC,2409,MFG US El Paso,MRF,31.75915909,-106.4874878,EL PASO,TX,79912-8000,USA,9/11/2019 17:01,EL PASO,TX,TX,USA,
DC,2240,VIRTUAL US Med Safe Systems,MRF,32.71567917,-117.1617126,San Diego,CA,,USA,9/11/2019 17:01,San Diego,CA,CA,USA,
DC,2286,MFG MRFIS US SanJose Reagents,MRF,37.33864975,-121.8854218,San Jose,CA,95131-1812,USA,9/11/2019 17:01,San Jose,CA,CA,USA,
DC,2243,SO NO PULS LANGHUS,MRF,59.53862,11.38280964,LANGHUS,TX,1405,USA,10/31/2019 9:01,LANGHUS,2,2,USA,
DC,2238,DC US San Diego FTZ Solutions,MRF,32.71567917,-117.1617126,San Diego,CA,92154,USA,9/11/2019 17:01,San Diego,CA,CA,USA,
DC,2322,MEXICO PLANT C O LAREDO (US),MRF,27.53092003,-99.50222778,LAREDO,TX,78045-0000,USA,10/31/2019 9:01,LAREDO,TX,TX,USA,
DC,2427,DC US Four Oaks,MRF,35.4439888,-78.42899323,Four Oaks,NC,27524-7228,USA,9/11/2019 17:01,Four Oaks,NC,NC,USA,
DC,2255,IP US HandyLab,MRF,39.48830032,-76.65380859,Cockeysville,MD,21152-9212,USA,9/11/2019 17:01,Cockeysville,MD,MD,USA,
DC,2384,INACTIVE MRF MEDICAL OPHTHALMIC SYST,MRF,42.37646866,-71.23516846,WALTHAM,MA,02452-8405,USA,10/31/2019 9:01,WALTHAM,MA,MA,USA,
DC,3167,SO US MRFB SR CC1200,MRF,37.33864975,-121.8854218,San Jose,CA,95131-1807,USA,10/31/2019 9:01,San Jose,CA,CA,USA,
DC,2297,DC US Redlands CA,MRF,34.05538177,-117.1825867,Redlands,CA,92374-5008,USA,9/11/2019 17:01,Redlands,CA,CA,USA,
DC,3033,EXP US MRF Overseas Srv,MRF,41.02032089,-74.20005798,Franklin Lakes,NJ,07417-1815,USA,9/11/2019 17:01,Franklin Lakes,NJ,NJ,USA,
DC,2333,SO US SAN DIEGO GENEOHM,MRF,32.84265137,-117.2722015,LA JOLLA,CA,92037-0000,USA,10/31/2019 9:01,LA JOLLA,CA,CA,USA,
DC,3351,EXP NL GLOBAL HOLDINGS I,MRF,39.74023056,-75.55084229,Wilmington,DE,19801,USA,9/11/2019 17:01,Wilmington,DE,DE,USA,
DC,2296,MMS Oceanside - San Diego,MRF,32.71567917,-117.1617126,San Diego,CA,,USA,9/11/2019 17:01,San Diego,CA,CA,USA,
DC,2480,EXP US San Diego Tech Center,MRF,32.71567917,-117.1617126,San Diego,CA,92121-4386,USA,9/11/2019 17:01,San Diego,CA,CA,USA,
DC,2395,SO US WALTHAM 1058,MRF,42.37646866,-71.23516846,WALTHAM,MA,02452-8405,USA,10/31/2019 9:01,WALTHAM,MA,MA,USA,
DC,4096,DC US LOUISVILLE 1217,MRF,38.25489044,-85.7666626,LOUISVILLE,KY,40219-3429,USA,10/31/2019 9:01,LOUISVILLE,KY,KY,USA,
Factory,2299,MFG US Holdrege,MRF,40.43798065,-99.36917877,Holdrege,NE,68949-3126,USA,9/11/2019 17:01,Holdrege,NE,NE,USA,
Factory,2330,MFG US CELLULAR RESEARCH 1490,MRF,37.4553299,-122.1785812,MENLO PARK,CA,94025-1053,USA,10/31/2019 9:01,MENLO PARK,CA,CA,USA,
Factory,2418,1010 ST ISOMEDIX TX,MRF,31.75915909,-106.4874878,EL PASO,TX,79936,USA,9/11/2019 17:01,EL PASO,TX,TX,USA,
Factory,3178,MFG AE CAREFUSION 0401,MRF,25.26951027,55.30884171,DUBAI,AE,0,USA,10/31/2019 9:01,DUBAI,AE,AE,USA,
Factory,2260,SER US San Jose - MRFB,MRF,37.33864975,-121.8854218,San Jose,CA,95131-1804,USA,9/11/2019 17:01,San Jose,CA,CA,USA,
Factory,2236,MFG US WILSON 1211,MRF,35.72195816,-77.91636658,WILSON,NC,27893-9412,USA,10/31/2019 9:01,WILSON,NC,NC,USA,
Factory,2242,MFG US CREEDMOOR 0106,MRF,36.12226105,-78.6858902,CREEDMOOR,NC,27522-8113,USA,10/31/2019 9:01,CREEDMOOR,NC,NC,USA,
Factory,2230,"1010 ARMM, Inc, CA",MRF,33.67889023,-118.0015717,Huntington Beach,CA,92647,USA,9/11/2019 17:01,Huntington Beach,CA,CA,USA,
Factory,2434,MFG PR Juncos,MRF,18.22784042,-65.92472076,Juncos,TX,00777-4010,USA,9/11/2019 17:01,Juncos,Juncos,Juncos,USA,
Factory,2398,MFG US Andover,MRF,42.65414047,-71.13687897,Andover,MA,1810,USA,9/11/2019 17:01,Andover,MA,MA,USA,
Factory,2298,"1008 - Madison, GA",MRF,33.5958786,-83.46772766,Madison,GA,30650,USA,9/11/2019 17:01,Madison,GA,GA,USA,
Factory,2420,1213-Sterigenics-GA,MRF,33.88486862,-84.51644135,Smyrna,GA,30080,USA,9/11/2019 17:01,Smyrna,GA,GA,USA,
Factory,2143,"1011-Steris,Vega Alt",MRF,18.22506332,-66.47891235,Vega Alta,PR,692,USA,9/11/2019 17:01,Vega Alta,PR,PR,USA,
Factory,3361,1213-Majors Subcon,MRF,41.26066971,-95.94055939,Omaha,NE,68127,USA,9/11/2019 17:01,Omaha,NE,NE,USA,
Factory,2259,MFG US MADISON 1048,MRF,43.07313156,-89.38643646,Madison,WI,53713-2251,USA,10/31/2019 9:01,Madison,WI,WI,USA,
Factory,2272,MFG PMG US San Diego,MRF,32.71567917,-117.1617126,San Diego,CA,92121-1106,USA,9/11/2019 17:01,San Diego,CA,CA,USA,
Factory,2412,MFG DL US Bedford,MRF,42.49188995,-71.28147125,Bedford,MA,01730-1414,USA,9/11/2019 17:01,Bedford,MA,MA,USA,
Factory,3090,MFG US Broken Bow,MRF,41.40177155,-99.63970184,Broken Bow,NE,68822-2203,USA,9/11/2019 17:01,Broken Bow,NE,NE,USA,
Factory,3343,MFG US TEMPE 7111,MRF,33.42551041,-111.9372406,TEMPE,AZ,85281-7634,USA,10/31/2019 9:01,TEMPE,AZ,AZ,USA,
Factory,2318,"1003-Steris, SC",MRF,34.94824982,-81.93486786,Spartanburg,SC,29306,USA,9/11/2019 17:01,Spartanburg,SC,SC,USA,
Factory,3141,"1003-Synergy Hlt, OH",MRF,40.74269104,-84.10745239,Lima,OH,45804,USA,9/11/2019 17:01,Lima,OH,OH,USA,
Factory,2257,MFG US CAREFUSION 0302,MRF,38.6277504,-90.19956207,SAINT LOUIS,MO,63143-3800,USA,10/31/2019 9:01,SAINT LOUIS,MO,MO,USA,
Factory,2245,MFG US MRFPS Columbus (East),MRF,41.4335437,-97.3186758,Columbus E,NE,68601-3797,USA,9/11/2019 17:01,Columbus E,NE,NE,USA,
Factory,2417,MFG US RALEIGH 9029,MRF,35.78551102,-78.64266968,RALEIGH,NC,27606-2459,USA,10/31/2019 9:01,RALEIGH,NC,NC,USA,
Factory,2292,MFG PR Cayey,MRF,18.11465073,-66.16996002,Cayey,PR,00737-2860,USA,9/11/2019 17:01,Cayey,PR,PR,USA,
Factory,2423,MFG US Sumter,MRF,33.92438126,-80.34319305,Sumter,SC,29153-8786,USA,9/11/2019 17:01,Sumter,SC,SC,USA,
Factory,2401,MFG US Grayson,MRF,33.8939209,-83.95635986,Grayson,GA,30017-1538,USA,9/11/2019 17:01,Grayson,GA,GA,USA,
Factory,2248,"1010 Acaia, Inc, CA,",MRF,33.61695099,-117.9303284,"Newport Beach,",CA,92660,USA,9/11/2019 17:01,"Newport Beach,",CA,CA,USA,
Factory,2301,1010 Xttrium Lab IL,MRF,42.06555939,-87.93537903,Mt. Prospect,IL,60056,USA,9/11/2019 17:01,Mt. Prospect,IL,IL,USA,
Factory,2307,MFG US Baltimore,MRF,39.53171158,-76.64589691,Sparks,MD,21152-9212,USA,9/11/2019 17:01,Sparks,MD,MD,USA,
Factory,3091,MFG US GRAYSON 1436,MRF,33.8939209,-83.95635986,Grayson,GA,30017-1538,USA,10/31/2019 9:01,Grayson,GA,GA,USA,
Factory,2291,MFG PR LAS PIEDRAS CONSUMER 1056,MRF,18.18252945,-65.86530304,LAS PIEDRAS,PR,00771-2007,USA,10/31/2019 9:01,LAS PIEDRAS,PR,PR,USA,
Factory,2053,MFG MRFIS US SanJose Instrument,MRF,37.33864975,-121.8854218,San Jose,CA,95131-1812,USA,9/11/2019 17:01,San Jose,CA,CA,USA,
Factory,2304,1388-SterigenicsNC,MRF,36.09175873,-79.36411285,HAW RIVER,NC,27258,USA,9/11/2019 17:01,HAW RIVER,NC,NC,USA,
Factory,2282,MFG US Sandy,MRF,40.57012939,-111.8954697,SANDY,UT,84070-3213,USA,9/11/2019 17:01,SANDY,UT,UT,USA,
Factory,3363,1213-Steris Isome-TX,MRF,32.74769974,-97.00720215,Grand Prairie,TX,75050,USA,9/11/2019 17:01,Grand Prairie,TX,TX,USA,
Factory,2293,MFG US Molding COE,MRF,41.4335437,-97.3186758,COLUMBUS,NE,68601,USA,9/11/2019 17:01,COLUMBUS,NE,NE,USA,
Factory,2379,MFG US MRFMS Columbus (West),MRF,41.4360238,-97.3427047,COLUMBUS,NE,68601-3617,USA,9/11/2019 17:01,COLUMBUS,NE,NE,USA,
Factory,2319,Bajaj Medical,MRF,41.88425064,-87.63244629,Chicago,IL,60609,USA,9/11/2019 17:01,Chicago,IL,IL,USA,
Factory,2400,MFG US San Diego DS,MRF,32.71567917,-117.1617126,San Diego,CA,92121-1154,USA,9/11/2019 17:01,San Diego,CA,CA,USA,
Factory,2432,"1003-Sterigenics, IL",MRF,42.02616882,-88.06542206,Schaumburg,IL,60173,USA,9/11/2019 17:01,Schaumburg,IL,IL,USA,
Factory,2396,MFG US ACCURI CYTOMETERS INC 1036,MRF,42.28210068,-83.74846649,ANN ARBOR,MI,48103-0000,USA,10/31/2019 9:01,ANN ARBOR,MI,MI,USA,
Factory,2410,MFG US ST  LOUIS MRFDS ACCU GLASS 10,MRF,38.6277504,-90.19956207,SAINT LOUIS,MO,63132-1025,USA,10/31/2019 9:01,SAINT LOUIS,MO,MO,USA,
Factory,2249,MFG US WHEAT RIDGE 1046,MRF,39.75844955,-105.0801773,WHEAT RIDGE,CO,80033-2440,USA,10/31/2019 9:01,WHEAT RIDGE,CO,CO,USA,
Factory,2407,MFG PR SAN LORENZO 1036,MRF,18.19028091,-65.96230316,SAN LORENZO,PR,754,USA,10/31/2019 9:01,SAN LORENZO,PR,PR,USA,
Factory,2380,MFG US SENECA 1042,MRF,34.68547821,-82.95568085,SENECA,SC,29678-0000,USA,10/31/2019 9:01,SENECA,SC,SC,USA,
Factory,2311,"1010 Aplicare CT,",MRF,41.53628159,-72.7978363,Meriden,CT,6451,USA,9/11/2019 17:01,Meriden,CT,CT,USA,
Factory,2280,MFG US Detroit,MRF,42.3316803,-83.04799652,Detroit,MI,48201-2532,USA,9/11/2019 17:01,Detroit,MI,MI,USA,
Factory,2251,"1003-Steris, MA",MRF,42.32022858,-71.63713837,Northborough,MA,1532,USA,9/11/2019 17:01,Northborough,MA,MA,USA,
Factory,2378,1000-IBA Queensbury,MRF,43.3769989,-73.61499786,QUEENSBURY,NY,12804,USA,9/11/2019 17:01,QUEENSBURY,NY,NY,USA,
Factory,2422,MFG US MOUNTAIN VIEW 1155,MRF,37.38967133,-122.0815964,MOUNTAIN VIEW,CA,94043-1837,USA,10/31/2019 9:01,MOUNTAIN VIEW,CA,CA,USA,
Factory,3350,MFG US Canaan,MRF,41.95544052,-73.3644104,Canaan,CT,06018-2415,USA,9/11/2019 17:01,Canaan,CT,CT,USA,
Factory,2237,MFG GB UK MEDICAL 0708,MRF,42.11095047,-73.35370636,SHEFFIELD,YS,S10 5FH,USA,10/31/2019 9:01,SHEFFIELD,YS,YS,USA,
Factory,2320,MFG AE CAREFUSION 0400,MRF,25.26951027,55.30884171,DUBAI,AE,0,USA,10/31/2019 9:01,DUBAI,AE,AE,USA,
Factory,2314,1003-Sterigenics-NC,MRF,35.22285843,-80.83795929,Charlotte,NC,28278,USA,9/11/2019 17:01,Charlotte,NC,NC,USA,
Factory,2231,"1003-Steris, OH",MRF,39.85388947,-82.88271332,Groveport,OH,43125,USA,9/11/2019 17:01,Groveport,OH,OH,USA,
Factory,2404,DC US Franklin Wisc.,MRF,42.89984131,-88.02955627,Franklin,WI,53132,USA,9/11/2019 17:01,Franklin,WI,WI,USA,
Factory,2406,1010 IBA St Teresa,MRF,31.84654999,-106.6280899,Santa Teresa,NM,88008,USA,9/11/2019 17:01,Santa Teresa,NM,NM,USA,
Factory,2308,1086 Steris Chester,MRF,41.36148834,-74.27362061,Chester,NY,10918,USA,9/11/2019 17:01,Chester,NY,NY,USA,
Factory,2284,"1003-Steris, CA",MRF,32.71567917,-117.1617126,San Diego,CA,92121,USA,9/11/2019 17:01,San Diego,CA,CA,USA,
Factory,2285,MFG MRFB PR Cayey,MRF,18.0896062,-66.2433474,Cayey,PR,737,USA,9/11/2019 17:01,Cayey,PR,PR,USA,
Factory,3362,MFG US Mebane,MRF,36.09579086,-79.26618195,Mebane,NC,27302-8368,USA,9/11/2019 17:01,Mebane,NC,NC,USA,
Factory,2389,MFG US Treyburn,MRF,36.096097,-78.8542547,Durham,NC,27712-9483,USA,9/11/2019 17:01,Durham,NC,NC,USA,
Factory,2007,MFG CH MRF SWITZERLAND 0785,MRF,51.2625618,-1.082329988,Basingstoke,HA,RG22 4BS,USA,10/31/2019 9:01,Basingstoke,HA,HA,USA,
Factory,3174,MFG US MADISON 5201,MRF,43.07313156,-89.38643646,Madison,GA,30650-4775,USA,10/31/2019 9:01,Madison,GA,GA,USA,
Factory,2479,MFG US Miami,MRF,25.77481079,-80.19773102,Miami,FL,33169-5043,USA,9/11/2019 17:01,Miami,FL,FL,USA,
Factory,4190,MFG DL US Woburn,MRF,42.47922134,-71.15061188,WOBURN,MA,01801-4624,USA,9/11/2019 17:01,WOBURN,MA,MA,USA,
Factory,2283,1010 ST ISOMEDIX,MRF,40.57012939,-111.8954697,SANDY,UT,84070,USA,9/11/2019 17:01,SANDY,UT,UT,USA,
Factory,3112,1388-MedlineIL,MRF,42.36207962,-87.83386993,Waukegan,IL,60085,USA,9/11/2019 17:01,Waukegan,IL,IL,USA,
Factory,2253,"1037-Nogales,AZ SLOC",MRF,31.33782959,-110.9400635,NOGALES,AZ,85621,USA,9/11/2019 17:01,NOGALES,AZ,AZ,USA,
Factory,2252,MFG PMG US San Diego CTT,MRF,32.71567917,-117.1617126,San Diego,CA,92121-1106,USA,9/11/2019 17:01,San Diego,CA,CA,USA,
